City,Latitude,Longitude,Max Temperature,Humidity,Cloudiness,Wind Speed,Country,Date
Torbay,47.66,-52.73,48.2,81,40,12.75,CA,1537668000
Oussouye,12.49,-16.54,81.17,99,8,9.44,SN,1537671125
Sola,58.89,5.65,50,81,75,21.92,NO,1537669200
Albany,42.65,-73.75,53.96,74,75,1.28,US,1537667640
Marquard,-28.66,27.43,50.75,95,20,3.4,ZA,1537671133
Cape Town,-33.93,18.42,55.4,76,0,13.87,ZA,1537668000
Rikitea,-23.12,-134.97,71.09,100,92,7.09,PF,1537671135
Upernavik,72.79,-56.15,28.52,100,12,7.2,GL,1537671137
Ushuaia,-54.81,-68.31,33.8,80,75,11.41,AR,1537668000
Barrow,-38.31,-60.23,55.88,40,0,9.66,AR,1537671140
Adrar,27.87,-0.29,84.2,32,40,17.22,DZ,1537668000
Arraial do Cabo,-22.97,-42.02,67.04,100,20,2.95,BR,1537671142
Vao,59.1,26.19,50.07,84,0,11.01,EE,1537671143
Genhe,50.78,121.52,44.94,81,64,11.68,CN,1537671145
Bambous Virieux,-20.34,57.76,73.4,78,75,10.29,MU,1537668000
Jacareacanga,-6.22,-57.76,77.21,90,24,1.95,BR,1537671147
Kapaa,22.08,-159.32,87.08,79,40,10.29,US,1537667760
Vaini,15.34,74.49,71.9,92,48,2.73,IN,1537671150
Plouzane,48.38,-4.62,64.4,93,90,18.34,FR,1537669800
Atuona,-9.8,-139.03,79.82,100,0,8.32,PF,1537671153
Jamestown,-33.21,138.6,69.47,34,36,6.2,AU,1537671154
Kloulklubed,7.04,134.26,84.2,74,90,19.46,PW,1537667400
Bilma,18.69,12.92,80.94,19,68,5.19,NE,1537671157
Busselton,-33.64,115.35,62.67,97,44,4.97,AU,1537671158
Punta Arenas,-53.16,-70.91,28.4,79,20,6.93,CL,1537668000
Goure,13.98,10.27,75.99,50,76,2.73,NE,1537671161
Vila Franca do Campo,37.72,-25.43,71.6,88,40,3.36,PT,1537669800
Butaritari,3.07,172.79,85.17,100,8,6.64,KI,1537671164
Anadyr,64.73,177.51,48.2,61,75,11.18,RU,1537668000
Pervomayskoye,57.07,86.23,53.31,88,88,11.01,RU,1537671166
Westport,53.8,-9.52,46.25,93,80,8.55,IE,1537671168
Srednekolymsk,67.46,153.71,35.72,91,92,3.4,RU,1537671169
Bedele,8.46,36.35,48.86,93,12,2.51,ET,1537671170
Longyearbyen,78.22,15.63,35.6,64,75,26.4,NO,1537667400
Sabang,13.72,123.58,81.98,92,88,8.99,PH,1537671173
Thompson,55.74,-97.86,24.8,73,5,3.4,CA,1537668000
Canutama,-6.53,-64.38,76.17,96,56,2.28,BR,1537671176
Santa Fe,-31.62,-60.7,67.58,96,20,10.22,AR,1537671126
New Norfolk,-42.78,147.06,46.4,65,75,14.99,AU,1537669800
Qaanaaq,77.48,-69.36,16.14,100,0,10.22,GL,1537671180
Lompoc,34.64,-120.46,62.06,72,1,6.93,US,1537670100
Castro,-42.48,-73.76,45.57,100,88,7.2,CL,1537671183
San Patricio,-26.98,-56.83,76.4,76,8,4.74,PY,1537671184
Lebu,8.96,38.73,40.49,78,0,3.85,ET,1537671185
Murgab,37.5,61.97,59,58,0,4.7,TM,1537668000
Souillac,45.6,-0.6,68,88,90,8.05,FR,1537669800
Yellowknife,62.45,-114.38,44.6,56,20,13.87,CA,1537668000
Hilo,19.71,-155.08,82.04,67,40,6.93,US,1537667580
Hobart,-42.88,147.33,46.4,65,75,14.99,AU,1537669800
Maniitsoq,65.42,-52.9,36.12,89,64,11.79,GL,1537671193
Vrangel,42.73,133.08,62.94,100,44,7.2,RU,1537671143
Manuk Mangkaw,4.8,119.85,84.59,100,12,5.3,PH,1537671195
Puerto del Rosario,28.5,-13.86,73.4,83,0,8.05,ES,1537669800
Saskylakh,71.97,114.09,37.25,95,68,5.53,RU,1537671198
Kutum,14.2,24.66,71.36,63,0,8.21,SD,1537671199
Palmer,-34.85,139.16,64.4,52,75,10.29,AU,1537669800
Kieta,-6.22,155.63,79.91,100,76,4.41,PG,1537671202
Necochea,-38.55,-58.74,48.59,86,0,3.29,AR,1537671204
Killarney,-28.34,152.3,72.66,49,0,4.52,AU,1537671205
Bluff,-23.58,149.07,82.47,29,0,11.23,AU,1537671206
Makakilo City,21.35,-158.09,84.02,63,75,8.05,US,1537667820
Port Alfred,-33.59,26.89,60.47,100,24,7.2,ZA,1537671209
Lerwick,60.15,-1.15,46.4,65,68,10.29,GB,1537669200
Teya,21.05,-89.07,73.4,94,40,3.18,MX,1537667100
Trincomalee,8.58,81.23,82.74,78,36,10.22,LK,1537671213
Mataura,-46.19,168.86,45.71,95,92,14.7,NZ,1537671214
Itamaraca,-7.75,-34.83,77,73,20,8.05,BR,1537668000
Carnarvon,-30.97,22.13,37.43,63,12,6.2,ZA,1537671217
Clyde River,70.47,-68.59,23,100,90,12.75,CA,1537668000
Hamilton,43.26,-79.87,59,87,75,3.36,CA,1537668000
Lensk,60.71,114.91,49.58,64,0,6.08,RU,1537671221
Nha Trang,12.24,109.19,84.5,86,0,1.61,VN,1537671222
Daru,7.99,-10.85,72.89,99,92,8.43,SL,1537671224
Sitka,37.17,-99.65,57.68,64,0,6.64,US,1537671225
Bavleny,56.4,39.56,63.98,57,56,15.37,RU,1537671226
Songjianghe,42.18,127.48,54.98,72,68,7.43,CN,1537671228
Kyzyl-Suu,42.34,78,50.84,100,56,4.74,KG,1537671229
Ilulissat,69.22,-51.1,30.2,36,0,17.22,GL,1537667400
Martapura,-3.41,114.85,89.6,52,20,10.29,ID,1537668000
Ahipara,-35.17,173.16,59.61,80,0,14.25,NZ,1537671233
Rio Grande,-32.03,-52.1,70.64,80,56,15.93,BR,1537671234
Port Hedland,-20.31,118.58,89.6,24,0,8.05,AU,1537669800
Floro,61.6,5.03,44.6,81,90,27.51,NO,1537669200
Tasiilaq,65.61,-37.64,33.8,74,0,5.82,GL,1537667400
Saint-Philippe,45.36,-73.48,50,98,1,6.42,CA,1537670100
Mar del Plata,-46.43,-67.52,41.52,100,88,7.54,AR,1537671051
Banjar,-7.37,108.54,78.11,78,48,3.62,ID,1537671242
Copiapo,-27.37,-70.33,55.4,82,0,5.82,CL,1537668000
Chokurdakh,70.62,147.9,35.72,97,92,5.75,RU,1537671245
Garowe,8.41,48.48,76.89,36,8,6.87,SO,1537671246
Biak,-0.91,122.88,82.52,81,36,6.64,ID,1537671247
Dunedin,-45.87,170.5,54.44,88,92,5.64,NZ,1537671129
Markha,33.89,77.42,23.93,94,68,1.95,IN,1537671250
Iqaluit,63.75,-68.52,33.8,80,75,14.99,CA,1537668000
Ponta Delgada,37.73,-25.67,71.6,88,40,3.36,PT,1537669800
Belmonte,40.36,-7.35,56.78,71,12,2.62,PT,1537670976
Cherskiy,68.75,161.3,36.08,90,92,2.39,RU,1537671255
Mgandu,-5.96,34.11,57.09,85,0,9.89,TZ,1537671256
Aswan,24.09,32.9,80.6,34,0,10.29,EG,1537668000
Tuktoyaktuk,69.44,-133.03,26.6,100,90,16.11,CA,1537668000
Krasnoye,44.87,39.46,62.6,93,0,4.47,RU,1537668000
Kirakira,-10.46,161.92,81.17,100,20,13.91,SB,1537671261
Kodiak,39.95,-94.76,55.04,86,1,5.19,US,1537667580
Sungairaya,0.7,108.9,87.65,77,20,3.4,ID,1537671263
Dikson,73.51,80.55,41.61,90,92,12.24,RU,1537671265
Alpena,45.06,-83.43,48.74,82,1,6.93,US,1537670100
Waipawa,-39.94,176.59,62.22,61,0,2.84,NZ,1537671267
Noumea,-22.28,166.46,73.4,49,40,19.46,NC,1537669800
Padang,-0.92,100.36,81.71,100,0,3.62,ID,1537671270
Antalaha,-14.9,50.28,69.74,96,48,9.66,MG,1537671271
Tottori,35.5,134.23,77,65,75,5.82,JP,1537668000
Saint-Augustin,44.83,-0.61,68,93,90,5.82,FR,1537669800
Deputatskiy,69.3,139.9,34.91,71,0,3.96,RU,1537671275
Shubarkuduk,49.15,56.49,40.26,76,0,2.95,KZ,1537671276
Portland,45.52,-122.67,64.94,52,75,13.87,US,1537667580
Severo-Kurilsk,50.68,156.12,51.11,94,44,5.08,RU,1537671279
Shimoda,34.7,138.93,80.6,69,40,13.87,JP,1537668000
Hami,42.84,93.51,64.11,41,76,4.74,CN,1537671282
Fairbanks,64.84,-147.72,48.92,92,75,3.96,US,1537669380
Ballina,54.11,-9.15,44.22,92,88,5.64,IE,1537671284
Edgewater,28.99,-80.9,80.6,69,1,8.05,US,1537667760
Samarai,-10.62,150.67,78.2,99,88,18.39,PG,1537671287
Esperance,10.24,-61.45,78.8,88,20,4.74,TT,1537668000
Bhera,32.48,72.91,71.63,95,68,6.64,PK,1537671061
Borogontsy,62.67,131.17,44.49,94,92,6.31,RU,1537671291
Vestmanna,62.16,-7.17,42.8,70,68,16.11,FO,1537669200
Almaznyy,48.03,40.04,53.45,78,0,8.43,RU,1537671293
Praxedis Guerrero,31.37,-106.02,75.02,39,20,6.93,MX,1537667460
East London,-33.02,27.91,66.41,100,92,11.79,ZA,1537671296
Santa Marta,11.24,-74.21,84.2,74,75,4.7,CO,1537668000
Hoshcha,50.6,26.67,45.21,95,48,8.88,UA,1537671299
Nikolskoye,59.7,30.79,48.2,87,0,6.71,RU,1537668000
Port Hardy,50.7,-127.42,55.4,50,20,5.82,CA,1537668000
Blythe,33.61,-114.59,86.52,29,0,5.3,US,1537671303
Mersing,2.43,103.84,85.31,92,0,5.97,MY,1537671305
Bredasdorp,-34.53,20.04,41,93,0,2.24,ZA,1537668000
Port Elizabeth,39.31,-74.98,66.02,67,90,6.93,US,1537667760
Zeerust,-25.54,26.07,60.96,54,36,13.8,ZA,1537671309
Kaitangata,-46.28,169.85,46.25,100,80,15.7,NZ,1537671310
Hermanus,-34.42,19.24,33.29,96,0,2.73,ZA,1537671311
Vernon,50.27,-119.27,53.6,93,75,6.93,CA,1537668000
Kruisfontein,-34,24.73,51.92,100,0,5.41,ZA,1537671314
Salima,-13.78,34.45,58.58,84,0,6.53,MW,1537671315
Warrington,53.39,-2.59,46.4,87,20,3.36,GB,1537669200
Nieves,24,-103.02,63.17,79,24,9.66,MX,1537671318
Tambo,-24.88,146.25,79.28,35,0,6.64,AU,1537671319
Huarmey,-10.07,-78.15,57.54,86,36,3.62,PE,1537671321
Meulaboh,4.14,96.13,81.17,100,0,7.65,ID,1537671322
Narsaq,60.91,-46.05,48.2,29,92,24.16,GL,1537667400
Malanje,-9.54,16.35,61.91,99,0,4.41,AO,1537671325
Namatanai,-3.66,152.44,84.27,97,20,12.8,PG,1537671326
Svetlograd,45.34,42.84,55.4,93,0,8.95,RU,1537668000
Taltal,-25.41,-70.49,50.61,97,0,1.5,CL,1537671328
Buala,-8.15,159.59,85.94,79,92,7.2,SB,1537671330
Tiznit,29.7,-9.73,71.31,83,20,3.74,MA,1537671272
Hobyo,5.35,48.53,75.5,88,0,19.51,SO,1537671332
Provideniya,64.42,-173.23,46.56,92,0,15.59,RU,1537671333
Praia,-20.25,-43.81,71.6,64,0,6.93,BR,1537668000
Luderitz,-26.65,15.16,52.64,86,0,17.05,NA,1537671336
Smithers,54.78,-127.17,48.2,49,40,2.24,CA,1537668000
Pangnirtung,66.15,-65.72,27.39,88,56,6.2,CA,1537671339
San Quintin,17.54,120.52,87.8,66,20,4.7,PH,1537668000
Rafaela,-31.25,-61.49,68.75,91,8,10.56,AR,1537671160
Itarema,-2.92,-39.92,76.17,89,24,14.47,BR,1537671349
Kasama,-10.21,31.19,59.21,55,0,6.31,ZM,1537671350
Ponta do Sol,-20.63,-46,62.54,83,0,7.54,BR,1537671351
Hithadhoo,-0.6,73.08,83.82,100,56,5.53,MV,1537671352
Palora,-1.7,-77.97,60.83,99,12,2.62,EC,1537671354
Aurora,41.76,-88.32,60.08,84,1,3.36,US,1537670100
Sinnamary,5.38,-52.96,82.11,94,0,11.68,GF,1537671357
Pitiquito,30.68,-112.05,88.1,28,32,6.76,MX,1537671358
Roebourne,-20.77,117.15,93.99,8,0,4.63,AU,1537671359
Touros,-5.2,-35.46,74.51,92,32,10.67,BR,1537671361
Tual,-5.67,132.75,80.99,97,68,16.26,ID,1537671362
Kahului,20.89,-156.47,87.98,61,40,14.99,US,1537670700
Puerto Ayora,-0.74,-90.35,69.56,100,0,11.01,EC,1537671145
Mananjary,-19.16,46.8,43.37,81,0,3.96,MG,1537671366
Moussoro,13.64,16.49,77.34,74,0,2.84,TD,1537671367
Lagoa,37.14,-8.45,75.2,44,0,5.82,PT,1537669800
Norman Wells,65.28,-126.83,51.8,29,40,5.82,CA,1537668000
Palafrugell,41.92,3.16,62.6,100,0,2.73,ES,1537669800
Patzcuaro,19.52,-101.6,58.4,92,56,0.72,MX,1537671373
Vardo,39.62,-77.74,62.06,69,1,5.82,US,1537668900
Avarua,-21.21,-159.78,77,61,75,14.99,CK,1537668000
Saldanha,41.42,-6.55,51.56,79,8,1.95,PT,1537671377
Limoeiro do Ajuru,-1.9,-49.38,81.39,91,0,11.68,BR,1537671378
Saint-Joseph,43.56,6.97,71.6,88,0,4.7,FR,1537669800
Tabou,4.42,-7.36,78.24,100,92,11.68,CI,1537671381
Isiolo,0.35,37.58,62.49,84,0,4.97,KE,1537671382
Intipuca,13.2,-88.05,74.46,100,76,5.97,SV,1537671383
Alofi,-19.06,-169.92,80.6,74,0,11.41,NU,1537668000
Vodnyy,63.51,53.41,58.26,96,88,6.87,RU,1537671386
Talnakh,69.49,88.39,45.08,94,92,11.01,RU,1537671387
Te Anau,-45.41,167.72,47.51,80,88,7.43,NZ,1537671389
Shenjiamen,29.96,122.3,79.28,95,64,14.36,CN,1537671390
Lapi,57.91,26.99,48.2,81,0,12.75,EE,1537667400
Scottsbluff,41.87,-103.67,75.02,41,1,5.82,US,1537667580
Maracaibo,3.41,-75.78,75.2,73,20,11.41,CO,1537668000
Paamiut,61.99,-49.67,41.52,92,92,42.43,GL,1537671395
Grand-Lahou,5.24,-5,75.59,90,88,5.97,CI,1537671396
Cabo San Lucas,22.89,-109.91,82.4,78,5,6.93,MX,1537666980
Lasa,34.92,32.53,73.4,72,0,6.93,CY,1537669800
Yuzhno-Sukhokumsk,44.66,45.65,57.54,94,0,6.76,RU,1537671400
Pangkalanbuun,-2.68,111.62,87.65,73,0,7.76,ID,1537671401
Henties Bay,-22.12,14.28,53.63,100,12,7.2,NA,1537671403
Yarmouth,50.71,-1.5,50,100,88,8.05,GB,1537667400
Poum,41.28,20.71,52.59,89,0,2.39,MK,1537671406
Codrington,-28.95,153.24,74.64,61,0,3.18,AU,1537671407
Xiangxiang,27.73,112.52,73.43,96,92,6.64,CN,1537671408
Manta,45.1,24.1,52.86,89,8,2.84,RO,1537671410
Syracuse,43.05,-76.15,50,82,90,1.72,US,1537667760
Bethel,60.79,-161.76,50,96,90,23.04,US,1537667580
Ossora,59.24,163.07,50.3,98,0,4.18,RU,1537671414
Kongolo,-5.39,27,73.25,50,0,4.18,CD,1537671415
Cidreira,-30.17,-50.22,69.92,84,24,10.67,BR,1537671417
Faanui,-16.48,-151.75,74.6,100,92,19.95,PF,1537671418
Guerrero Negro,27.97,-114.04,71,87,20,9.66,MX,1537671419
Asbe Teferi,9.08,40.87,53,71,0,3.62,ET,1537671421
Bambanglipuro,-7.95,110.28,85.85,61,0,5.53,ID,1537671422
Victoria,5.28,115.24,87.8,79,75,3.36,BN,1537669800
Evensk,61.92,159.24,48.41,99,20,4.74,RU,1537671425
Sharjah,25.36,55.39,89.6,66,0,4.7,AE,1537668000
Kenai,60.55,-151.26,55.04,71,20,23.04,US,1537667760
Darhan,49.49,105.92,52.14,54,0,5.86,MN,1537671428
Nome,30.04,-94.42,76.46,91,1,4.74,US,1537668900
Nabire,-3.36,135.5,78.69,83,36,2.73,ID,1537671431
Olinda,-2.03,-79.75,75.2,73,0,14.99,EC,1537668000
Atambua,-9.11,124.89,87.69,66,0,3.62,ID,1537671433
Pevek,69.7,170.27,44.36,100,76,2.17,RU,1537671435
Contamana,-7.35,-75.01,79.28,84,0,1.16,PE,1537671436
Susangerd,31.56,48.19,82.4,32,0,2.24,IR,1537668000
Ormara,25.21,64.64,76.94,98,76,2.28,PK,1537671439
Catia La Mar,10.6,-67.03,78.8,83,75,14.7,VE,1537668000
Aden,12.79,45.03,83.01,100,0,6.08,YE,1537671442
Coihaique,-45.58,-72.07,41,100,0,3.36,CL,1537668000
Apiai,-24.51,-48.84,58.76,93,0,2.17,BR,1537671444
Saint-Pierre,48.95,4.24,68,93,90,18.34,FR,1537669800
Bathsheba,13.22,-59.52,80.6,78,40,11.41,BB,1537668000
Pouembout,-21.12,164.9,75.77,40,92,5.75,NC,1537671449
Arlit,18.74,7.39,83.46,26,80,1.95,NE,1537671450
Geraldton,49.72,-86.95,35.6,93,90,4.7,CA,1537668000
Lavrentiya,65.58,-170.99,46.79,87,0,20.07,RU,1537671453
Ixtapa,20.71,-105.21,78.8,100,90,6.93,MX,1537667100
Port Lincoln,-34.72,135.86,59.66,90,24,14.25,AU,1537671455
Vestmannaeyjar,63.44,-20.27,37.29,100,0,7.99,IS,1537671456
Langxiang,46.95,128.87,56.87,64,20,3.18,CN,1537671458
Avera,33.19,-82.53,80.96,81,1,6.98,US,1537670100
Khatanga,71.98,102.47,46.07,95,92,3.51,RU,1537671460
Mogadishu,2.04,45.34,77.52,100,20,13.8,SO,1537671462
Chai Badan,15.2,101.13,78.96,95,64,3.96,TH,1537671463
Luancheng,37.88,114.65,71.6,30,0,4.47,CN,1537668000
Pisco,-13.71,-76.2,60.8,87,0,12.75,PE,1537668000
Artvin,41.18,41.83,66.2,82,20,11.41,TR,1537669800
Havre-Saint-Pierre,50.23,-63.6,41,52,40,13.87,CA,1537668000
Taoudenni,22.68,-3.98,74.64,27,0,3.62,ML,1537671469
Tikapur,28.53,81.12,70.55,100,76,2.62,NP,1537671471
Bubaque,11.28,-15.83,80.63,100,48,10,GW,1537671472
Haines Junction,60.75,-137.51,44.45,62,76,5.19,CA,1537671473
Klyuchi,52.25,79.17,54.62,81,92,12.8,RU,1537671475
Sungaipenuh,-2.08,101.38,76.62,76,12,1.28,ID,1537671476
Opuwo,-18.06,13.84,66.5,29,32,4.74,NA,1537671477
Tura,25.52,90.21,80.9,90,92,3.4,IN,1537671479
Goderich,43.74,-81.71,48.14,85,0,3.06,CA,1537671480
Hasaki,35.73,140.83,80.6,69,75,8.05,JP,1537668000
Sobolevo,54.43,31.9,48.86,96,56,9.22,RU,1537671482
Guymon,36.68,-101.48,64.94,63,1,11.41,US,1537670100
Namibe,-15.19,12.15,65.42,100,0,3.74,AO,1537671485
Palatka,29.65,-81.64,80.96,94,75,5.82,US,1537670100
Fereydun Kenar,36.69,52.52,65.33,89,0,3.62,IR,1537671488
Qandala,11.47,49.87,60.51,89,0,1.95,SO,1537671489
Mata,22.63,-79.93,77,88,75,2.24,CU,1537667520
Hualmay,-11.1,-77.61,58.89,93,80,5.53,PE,1537671491
Mongu,-15.27,23.14,65.91,44,0,8.55,ZM,1537671493
Swellendam,-34.02,20.44,41,93,0,2.24,ZA,1537668000
Lewistown,40.39,-90.15,57.92,88,1,7.99,US,1537670100
Constitucion,23.99,-104.67,64.4,82,90,3.36,MX,1537666800
Ketchikan,55.34,-131.65,57.92,57,1,5.82,US,1537667760
Moose Factory,51.26,-80.61,30.2,80,1,5.82,CA,1537668000
Dok Kham Tai,19.16,99.99,83.01,82,24,3.29,TH,1537671501
Porlamar,10.96,-63.85,80.6,83,20,14.36,VE,1537671600
Naranjal,-25.97,-55.19,78.8,69,0,6.93,PY,1537668000
Riberalta,-11,-66.08,73.25,96,32,1.61,BO,1537671505
Airai,-8.93,125.41,86.66,34,0,2.62,TL,1537671507
Berlevag,70.86,29.09,46.61,96,0,17.83,NO,1537671508
Peruibe,-24.32,-47,70.55,98,80,15.7,BR,1537671510
Naze,5.43,7.07,71.49,98,80,3.51,NG,1537671511
Senneterre,48.39,-77.24,46.4,70,40,11.41,CA,1537668000
Agadir,30.42,-9.58,69.83,76,24,3.18,MA,1537671513
Nhulunbuy,-12.18,136.78,86,55,75,14.99,AU,1537669800
Saint George,39.45,22.34,60.8,72,0,1.83,GR,1537667400
Micheweni,-4.97,39.83,76.31,100,76,11.79,TZ,1537671517
Inirida,3.87,-67.92,76.58,92,0,3.4,CO,1537671519
Sao Felix do Xingu,-6.64,-51.99,77.93,83,20,2.17,BR,1537671520
Vila Velha,-3.71,-38.6,78.8,83,40,10.29,BR,1537671600
Chuy,-33.69,-53.46,65.96,97,92,8.77,UY,1537671523
Yumen,40.29,97.04,55.47,40,24,9.44,CN,1537671524
Burns Lake,54.23,-125.76,38.91,82,0,2.39,CA,1537671525
Bay City,43.59,-83.89,53.06,70,1,1.95,US,1537670100
Kavieng,-2.57,150.8,86.66,99,8,5.19,PG,1537671528
Caravelas,-17.73,-39.27,77.07,100,76,9.66,BR,1537671529
Zemio,5.02,25.13,69.24,94,0,2.51,CF,1537671531
Axim,4.87,-2.24,78.24,100,92,12.57,GH,1537671532
Ust-Omchug,61.13,149.63,40.58,57,44,3.51,RU,1537671533
Dingle,11,122.67,80.04,100,68,0.38,PH,1537671534
Hope,49.38,-121.43,55.4,100,90,1.72,CA,1537669140
Angoche,-16.23,39.91,74.42,100,0,3.74,MZ,1537671537
Okha,53.59,142.95,57.41,72,0,2.95,RU,1537671538
Beyneu,45.32,55.19,46.47,81,0,2.84,KZ,1537671540
Torbat-e Jam,35.24,60.63,47.69,62,0,2.62,IR,1537671541
Hovd,63.83,10.7,48.2,81,75,26.4,NO,1537667400
Mangai,-4.07,19.59,71.49,95,24,2.39,CD,1537671543
Moron,10.49,-68.2,70.14,97,76,1.83,VE,1537671545
Georgetown,6.8,-58.16,77,100,0,4.7,GY,1537668000
Gualaceo,-2.89,-78.78,57.2,67,40,3.36,EC,1537668000
Moreira Sales,-24.05,-53.01,69.47,82,0,6.76,BR,1537671549
Mwense,-10.39,28.7,69.87,32,8,10.45,ZM,1537671550
Pedernales,0.07,-80.05,72.71,91,36,6.64,EC,1537671551
Sechura,-5.56,-80.82,66.81,84,0,12.01,PE,1537671553
Hambantota,6.12,81.12,80.49,100,64,7.76,LK,1537671554
Yulara,-25.24,130.99,77,15,0,13.87,AU,1537668000
Mitsamiouli,-11.38,43.28,74.96,100,0,7.2,KM,1537671557
Jizan,16.89,42.56,91.4,70,0,4.7,SA,1537668000
Hudson Bay,52.86,-102.4,31.71,52,64,5.08,CA,1537671559
Tiksi,71.64,128.87,34.82,100,64,12.46,RU,1537671560
Nouadhibou,20.93,-17.03,69.8,88,75,18.34,MR,1537668000
Karlskoga,59.33,14.52,48.2,81,0,4.7,SE,1537669200
Nanortalik,60.14,-45.24,38.82,98,92,28.12,GL,1537671564
Fare,-16.7,-151.02,76.71,100,92,20.51,PF,1537671565
Truth or Consequences,33.13,-107.25,75.02,28,1,2.17,US,1537667580
Port-Gentil,-0.72,8.78,77.16,99,92,9.66,GA,1537671568
Parrsboro,45.41,-64.33,51.8,76,75,5.82,CA,1537668000
Todos Santos,23.45,-110.23,86,58,5,6.93,MX,1537667220
Yanam,16.73,82.22,84.86,87,0,4.85,IN,1537671572
Junin,-16.45,-71.58,57.2,28,0,3.36,PE,1537668000
Borgo San Dalmazzo,44.33,7.49,51.02,84,32,1.72,IT,1537671575
Qasigiannguit,68.82,-51.19,30.2,36,0,17.22,GL,1537667400
Methoni,36.82,21.7,64.4,77,0,5.82,GR,1537669200
Palu,-0.9,119.87,80.09,58,8,1.95,ID,1537671579
Ipixuna,-1.76,-48.8,77,88,0,8.05,BR,1537671600
Jingdezhen,29.29,117.2,77.12,91,92,3.96,CN,1537671582
Chabahar,25.29,60.65,81.17,92,0,5.19,IR,1537671583
Mekhe,15.11,-16.62,78.47,98,8,7.76,SN,1537671584
Neosho,43.31,-88.52,53.06,81,1,4.7,US,1537670100
Cayenne,4.94,-52.33,78.8,88,0,3.36,GF,1537669800
Dolni Bousov,50.44,15.13,55.4,62,80,9.17,CZ,1537668000
Rincon,32.3,-81.24,78.8,85,1,4.29,US,1537670100
Klaksvik,62.23,-6.59,42.8,70,56,16.11,FO,1537669200
Karachi,24.87,67.03,80.6,78,40,11.45,PK,1537667700
Gerash,27.67,54.14,73.4,49,0,3.18,IR,1537668000
Santiago,-33.44,-70.65,55.4,76,0,5.82,CL,1537668000
Margate,-43.03,147.26,46.4,65,75,14.99,AU,1537669800
Nagato,34.35,131.14,75.2,73,75,4.7,JP,1537668000
Verkhoyansk,67.55,133.39,34.82,87,88,2.62,RU,1537671599
Buraydah,26.33,43.97,80.6,36,0,2.24,SA,1537668000
Udala,43.08,-2.51,64.4,93,20,2.73,ES,1537669800
Qaqortoq,60.72,-46.03,48.2,29,88,24.16,GL,1537667400
Ust-Kuyga,70,135.55,33.06,85,80,5.41,RU,1537671666
Chiredzi,-21.05,31.67,63.8,81,0,9.22,ZW,1537671607
Maraa,-1.83,-65.37,77.07,89,76,3.18,BR,1537671669
Lodja,-3.52,23.6,71.31,90,0,2.62,CD,1537671610
Parchim,53.43,11.85,46.4,93,20,6.93,DE,1537669200
Pitlochry,56.7,-3.73,42.8,87,76,4.7,GB,1537667400
Katobu,-4.94,122.53,87.02,74,0,5.41,ID,1537671676
Chapulhuacan,21.17,-98.9,64.52,97,92,0.49,MX,1537671617
Minudasht,37.23,55.37,62.72,79,76,3.18,IR,1537671679
Muisne,0.61,-80.02,73.02,87,44,4.07,EC,1537671620
Manglaur,29.79,77.88,71.22,100,92,6.42,IN,1537671517
Riachao das Neves,-11.75,-44.91,81.44,36,100,6.64,BR,1537671623
Le Port,42.87,1.37,46.29,91,0,1.72,FR,1537671625
Birao,10.3,22.78,71.9,84,8,3.74,CF,1537671626
Altay,47.83,88.13,50.07,61,44,2.95,CN,1537671628
Atkarsk,51.88,45.01,52.91,84,0,8.1,RU,1537671629
Takoradi,4.89,-1.75,77.16,100,76,9.1,GH,1537671630
Dongsheng,29.72,112.52,69.38,98,100,3.96,CN,1537671631
Grindavik,63.84,-22.43,33.8,74,0,3.36,IS,1537668000
Rabo de Peixe,37.8,-25.58,71.6,88,40,3.36,PT,1537669800
Salalah,17.01,54.1,73.4,78,0,3.36,OM,1537667400
Trinidad,-33.52,-56.9,66.36,98,92,3.4,UY,1537671637
Vetlanda,57.43,15.09,46.4,93,76,11.41,SE,1537669200
Boralday,43.36,76.86,57.2,71,75,4.47,KZ,1537668000
Guano,-1.61,-78.64,35.67,88,0,0.16,EC,1537671641
Riyadh,24.63,46.72,80.6,15,0,3.36,SA,1537668000
Preobrazheniye,42.9,133.91,62.36,71,24,2.51,RU,1537671643
Aklavik,68.22,-135.01,41,80,90,4.7,CA,1537668000
Ligayan,4.65,119.47,83.78,100,12,3.74,PH,1537671646
Kosh-Agach,49.99,88.66,43.41,59,0,4.18,RU,1537671647
Binzhou,37.38,117.96,70.77,50,0,10.22,CN,1537671648
Qujing,25.49,103.8,65.69,89,56,4.63,CN,1537671650
Palauig,15.44,119.9,83.15,91,24,4.29,PH,1537671651
Concepcion del Oro,24.63,-101.42,59.21,79,32,2.17,MX,1537671652
Kilindoni,-7.91,39.67,76.89,100,76,12.8,TZ,1537671654
Nichinan,31.65,131.31,80.6,74,75,12.75,JP,1537668000
Sindou,10.66,-5.16,71.22,97,36,2.17,BF,1537671656
High Level,58.52,-117.13,42.8,38,5,4.7,CA,1537668000
Huilong,28.89,110.18,66.23,96,92,3.06,CN,1537671659
Abu Kamal,34.45,40.92,66.59,55,0,8.43,SY,1537671655
Dicabisagan,17.08,122.42,82.43,96,12,6.2,PH,1537671661
Kisangani,0.52,25.21,71.18,97,80,3.18,CD,1537671663
Yar-Sale,66.83,70.83,46.97,100,88,15.03,RU,1537671664
Flin Flon,54.77,-101.88,32.07,97,0,5.19,CA,1537671665
Wukari,7.87,9.78,70.59,99,92,4.41,NG,1537671667
Ilheus,-14.79,-39.05,74.91,100,92,4.74,BR,1537671668
Matadi,-5.83,13.46,70.55,95,92,4.18,CD,1537671669
Hjorring,57.46,9.98,54.17,93,0,27,DK,1537671670
Svobodnyy,53.85,40.53,60.38,64,8,14.47,RU,1537671672
Jumla,29.28,82.18,38.82,97,92,2.06,NP,1537671673
Beira,43.2,-8.36,64.4,93,0,0.49,ES,1537669800
Hailar,49.2,119.7,50.07,80,80,14.7,CN,1537671676
Luchegorsk,46.44,134.3,62.63,76,0,3.4,RU,1537671677
Zhigansk,66.77,123.37,41.84,87,64,3.85,RU,1537671679
Manama,25.33,56.02,89.6,74,0,3.36,AE,1537671600
Beringovskiy,63.05,179.32,45.8,97,88,14.92,RU,1537671681
Basco,40.33,-91.2,60.98,77,1,4.7,US,1537670100
Tocache,-8.19,-76.51,56.6,87,32,1.95,PE,1537671684
Sao Filipe,14.9,-24.5,78.83,94,12,14.7,CV,1537671685
Belvedere Marittimo,39.62,15.86,74.82,99,0,1.39,IT,1537671687
Gayny,60.3,54.33,51.47,95,80,7.76,RU,1537671688
Vanimo,-2.67,141.3,81.71,100,8,5.75,PG,1537671689
Isangel,-19.55,169.27,71.49,100,44,17.72,VU,1537671690
Oksfjord,70.24,22.35,48.2,76,0,31.09,NO,1537669200
Jiangkou,30.7,117.56,75.5,77,80,7.87,CN,1537671693
Pahrump,36.21,-115.98,93.92,16,1,12.75,US,1537667700
Tsimlyansk,47.65,42.1,58.58,78,0,10.78,RU,1537671696
Ribeira Grande,38.52,-28.7,75.36,95,76,15.37,PT,1537671697
Kidodi,-7.6,37,63.17,90,48,2.39,TZ,1537671698
Taseyevo,57.22,94.9,49.71,71,24,3.51,RU,1537671569
Tuatapere,-46.13,167.69,47.33,100,76,16.26,NZ,1537671701
Novyy Urgal,51.07,132.56,50.34,100,92,3.96,RU,1537671702
Shasta Lake,40.68,-122.36,82.94,21,1,3.36,US,1537667640
Tateyama,36.66,137.31,77,61,40,5.82,JP,1537668000
Ankang,32.73,108.99,67.44,61,92,2.62,CN,1537671706
Kodino,63.72,39.64,53.22,85,88,7.54,RU,1537671707
Bocana de Paiwas,12.79,-85.12,74.64,96,100,5.19,NI,1537671709
Tilichiki,60.47,166.1,50.57,89,44,4.97,RU,1537671710
Shache,38.42,77.24,60.96,43,56,4.41,CN,1537671711
Leningradskiy,69.38,178.42,41.03,100,92,1.83,RU,1537671713
Tres Arroyos,-38.38,-60.28,55.88,40,0,9.66,AR,1537671714
Saint Anthony,43.97,-111.68,69.98,4,1,4.7,US,1537667760
Otane,-39.89,176.62,61.64,59,0,2.17,NZ,1537671717
Buchanan,5.88,-10.05,75.2,94,75,6.53,LR,1537668000
Gold Coast,-28,153.41,73.4,53,0,12.75,AU,1537669800
Yeppoon,-23.13,150.74,78.8,39,40,12.75,AU,1537669800
Belyy Yar,53.6,91.39,51.8,93,68,2.24,RU,1537668000
Cotonou,6.37,2.43,71.76,100,92,2.73,BJ,1537671723
Gabu,34.78,103,51.38,80,24,3.74,CN,1537671725
Kudahuvadhoo,2.67,72.89,79.41,100,68,6.98,MV,1537671726
Fortuna,38.18,-1.13,69.8,94,0,3.36,ES,1537669800
Karasburg,-28.01,18.75,48.5,36,32,5.64,NA,1537671729
Brae,60.4,-1.35,46.4,65,68,10.29,GB,1537669200
Kyabe,9.45,18.94,75.14,80,64,2.84,TD,1537671731
Ihosy,-22.4,46.13,45.08,79,44,2.73,MG,1537671732
Neiafu,-18.65,-173.98,82.4,69,20,4.7,TO,1537668000
Mokhsogollokh,61.4,128.95,43.59,100,92,7.54,RU,1537671735
Rochester,44.02,-92.46,59,71,1,8.05,US,1537670100
Raudeberg,61.99,5.14,44.6,81,90,27.51,NO,1537669200
Ena,35.45,137.41,78.8,54,40,3.36,JP,1537665900
Eureka,40.8,-124.16,62.06,100,1,10.29,US,1537670100
Ubala,13.89,44.44,48.95,35,0,3.74,YE,1537671742
Eydhafushi,5.1,73.07,80.76,100,80,7.99,MV,1537671743
Ust-Tsilma,65.44,52.15,59.79,91,88,7.43,RU,1537671744
Gizo,31.8,34.94,75.2,78,0,3.36,IL,1537669800
Bonavista,48.65,-53.11,49.17,98,0,21.85,CA,1537671747
Mendoza,-32.89,-68.84,73.4,56,0,9.17,AR,1537671600
Khandbari,27.38,87.21,46.74,65,0,1.16,NP,1537671750
Mohpa,21.31,78.83,80.6,83,40,4.7,IN,1537669800
Deer Lake,49.18,-57.43,50,57,40,13.87,CA,1537668000
Iskateley,67.68,53.15,55.47,89,80,15.7,RU,1537671754
Ulaangom,49.98,92.07,48.54,50,80,2.39,MN,1537671755
Juneau,58.3,-134.42,51.98,74,90,9.17,US,1537667760
Tubuala,9.52,-79.03,77,94,40,3.36,PA,1537668000
Alekseyevsk,57.84,108.35,50.57,57,0,3.4,RU,1537671759
Rawson,-43.3,-65.11,49.13,80,0,8.43,AR,1537671761
Mahebourg,-20.41,57.7,73.4,78,75,10.29,MU,1537668000
Barbate,36.19,-5.92,77,44,0,18.34,ES,1537669800
Slave Lake,55.28,-114.77,33.8,72,90,10.29,CA,1537669860
Oviedo,43.36,-5.84,62.6,100,90,3.36,ES,1537669800
Palmerston,43.83,-80.85,48.2,87,1,3.36,CA,1537668000
Husavik,50.56,-96.99,40.26,97,88,11.12,CA,1537671768
Kanniyakumari,8.08,77.57,80.04,100,68,13.13,IN,1537671770
Harper,30.3,-99.24,66.02,89,90,5.82,US,1537669800
Yarim,14.3,44.38,45.12,38,0,4.18,YE,1537671772
Hay River,60.82,-115.79,46.4,28,20,10.29,CA,1537668000
Yemelyanovo,56.17,92.69,46.4,93,12,3.62,RU,1537668000
Hervey Bay,-25.3,152.85,73.16,78,0,9.66,AU,1537671776
Los Llanos de Aridane,28.66,-17.92,73.4,69,0,12.75,ES,1537669800
Amuntai,-2.42,115.25,89.81,55,0,2.73,ID,1537671779
Kawalu,-7.38,108.21,76.26,64,0,2.73,ID,1537671780
Acapulco,16.86,-99.88,84.2,74,75,5.82,MX,1537667280
Newport,51.59,-3,50,100,90,11.41,GB,1537669200
Usak,38.67,29.41,50.79,83,0,2.62,TR,1537671641
Broken Hill,-31.97,141.45,71.67,46,24,11.01,AU,1537671786
Dukat,42.44,22.31,51.69,91,20,2.17,RS,1537671787
Luwuk,-0.95,122.79,82.52,81,36,6.64,ID,1537671789
Dalmeny,52.34,-106.77,33.8,80,90,11.41,CA,1537668000
Tortoli,39.93,9.66,56.64,96,0,4.52,IT,1537671664
Urucara,-2.54,-57.76,84.99,49,0,4.97,BR,1537671583
Amapa,15.09,-87.97,75.2,94,40,11.41,HN,1537671600
Muros,42.77,-9.06,60.8,100,90,3.36,ES,1537669800
Biedenkopf,50.92,8.53,50,93,75,4.7,DE,1537669200
Piacabucu,-10.41,-36.43,71.27,97,68,5.19,BR,1537671798
Machaneng,-23.19,27.49,62.76,59,0,10,BW,1537671799
Marzuq,14.4,46.47,55.25,31,0,3.4,YE,1537671801
Katsuura,33.93,134.5,73.4,83,75,4.7,JP,1537668000
Atar,20.52,-13.05,71.67,42,0,4.18,MR,1537671803
Fort-Shevchenko,44.51,50.26,61.32,97,0,11.23,KZ,1537671805
Kamaishi,39.28,141.86,77,53,20,12.75,JP,1537668000
Yerbabuena,-2.77,-79.52,57.2,67,40,3.36,EC,1537668000
Majene,-3.54,118.97,85.04,87,0,7.65,ID,1537671809
Teguldet,57.31,88.17,52.19,91,48,4.74,RU,1537671810
San Cristobal,-0.39,-78.55,50,87,0,9.17,EC,1537668000
Warrnambool,-38.38,142.48,52.77,94,24,12.35,AU,1537671813
Kulhudhuffushi,6.62,73.07,79.28,100,80,6.2,MV,1537671814
Gambela,8.25,34.59,60.42,91,44,2.62,ET,1537671815
Dawlatabad,36.41,64.91,59.07,64,0,3.06,AF,1537671817
Sao Joao del Rei,-21.14,-44.26,63.66,95,20,6.98,BR,1537671818
Gimli,50.63,-96.99,40.26,97,88,11.12,CA,1537671771
Coquimbo,-29.95,-71.34,53.6,93,75,3.36,CL,1537668000
Zhezkazgan,47.8,67.71,44.6,81,64,6.71,KZ,1537669800
Tooele,40.53,-112.3,77,24,1,4.7,US,1537670100
Port Blair,11.67,92.75,82.61,100,8,8.99,IN,1537671824
Mehamn,71.03,27.85,46.47,91,0,18.16,NO,1537671825
Plyussa,58.42,29.37,50.3,72,0,9.1,RU,1537671827
Vaasa,63.1,21.62,48.2,87,80,9.17,FI,1537669200
