City,Latitude,Longitude,Max Temperature,Humidity,Cloudiness,Wind Speed,Country,Date
Busselton,-33.64,115.35,62.67,97,44,4.97,AU,1537669461
Porosozero,62.72,32.71,49.89,84,64,8.43,RU,1537669462
Torbay,47.66,-52.73,48.2,81,40,12.75,CA,1537668000
Port Elizabeth,39.31,-74.98,66.02,67,90,6.93,US,1537667760
Qaqortoq,60.72,-46.03,48.2,29,88,24.16,GL,1537667400
Rikitea,-23.12,-134.97,71.09,100,92,7.09,PF,1537669476
Batman,37.88,41.13,60.8,51,0,5.82,TR,1537667400
Kargasok,59.06,80.87,50.21,74,88,4.07,RU,1537669478
Kahului,20.89,-156.47,87.98,57,40,14.99,US,1537667760
Rudnogorsk,57.27,103.75,50.93,60,0,3.62,RU,1537669481
Dangriga,16.97,-88.23,76.85,100,88,3.74,BZ,1537669482
Taoudenni,22.68,-3.98,74.64,27,0,3.62,ML,1537669483
Umm Lajj,25.02,37.27,74.64,100,8,2.84,SA,1537669485
Cabo San Lucas,22.89,-109.91,82.4,74,5,11.41,MX,1537663560
Adre,13.47,22.2,76.31,55,0,8.21,TD,1537669487
Cape Town,-33.93,18.42,55.4,76,0,13.87,ZA,1537668000
Atuona,-9.8,-139.03,79.82,100,0,8.32,PF,1537669490
Marawi,8,124.29,75.95,86,76,2.73,PH,1537669491
Aleksandrovsk-Sakhalinskiy,50.9,142.16,57.32,77,76,4.97,RU,1537669334
Airai,-8.93,125.41,86.66,34,0,2.62,TL,1537669494
Soure,40.06,-8.63,60.8,100,0,3.36,PT,1537664400
Pevek,69.7,170.27,44.36,100,76,2.17,RU,1537669496
Tongren,27.72,109.18,69.24,87,92,3.74,CN,1537669498
Hailey,43.52,-114.32,64.4,25,40,3.29,US,1537667400
Lazo,47.89,27.93,49.44,90,36,7.43,MD,1537669500
Dikson,73.51,80.55,41.61,90,92,12.24,RU,1537669501
Qasigiannguit,68.82,-51.19,30.2,36,0,17.22,GL,1537667400
Punta Arenas,-53.16,-70.91,30.2,80,20,4.7,CL,1537664400
East London,-33.02,27.91,66.41,100,92,11.79,ZA,1537669366
Ancud,-41.87,-73.83,46.02,96,92,9.44,CL,1537669506
Calderitas,18.55,-88.26,80.6,88,75,7.99,MX,1537666800
Vaini,15.34,74.49,71.9,92,48,2.73,IN,1537669509
Ushuaia,-54.81,-68.31,25.14,100,64,3.18,AR,1537669510
Naze,5.43,7.07,71.49,98,80,3.51,NG,1537669512
Kalabo,-15,22.67,67.04,42,12,6.2,ZM,1537669513
Rio Grande,-32.03,-52.1,70.64,80,56,15.93,BR,1537669514
Hobart,-42.88,147.33,46.4,75,75,19.46,AU,1537668240
Klaksvik,62.23,-6.59,41,80,56,17.22,FO,1537667400
Talnakh,69.49,88.39,45.08,94,92,11.01,RU,1537669518
Faanui,-16.48,-151.75,74.6,100,92,19.95,PF,1537669519
Mehamn,71.03,27.85,46.47,91,0,18.16,NO,1537669521
Qaanaaq,77.48,-69.36,16.14,100,0,10.22,GL,1537669522
Hithadhoo,-0.6,73.08,83.82,100,56,5.53,MV,1537669523
Shakawe,-18.36,21.84,68.84,34,68,9.44,BW,1537669525
Mataura,-46.19,168.86,45.71,95,92,14.7,NZ,1537669526
Oriximina,-1.77,-55.87,84.32,61,0,5.64,BR,1537669527
Tubuala,9.52,-79.03,77,94,40,3.36,PA,1537668000
Tacuarembo,-31.73,-55.98,67.49,96,36,8.21,UY,1537669530
Lagoa,37.14,-8.45,75.2,44,0,6.93,PT,1537668000
Port Alfred,-33.59,26.89,60.47,100,24,7.2,ZA,1537669533
Esperance,10.24,-61.45,78.8,88,20,4.74,TT,1537668000
Bluff,-23.58,149.07,82.47,29,0,11.23,AU,1537669535
Sisimiut,66.94,-53.67,20.01,100,24,3.4,GL,1537669537
Terra Santa,-2.1,-56.49,85.13,56,0,5.97,BR,1537669538
Yantal,56.85,105.25,49.44,57,0,3.4,RU,1537669539
Ranong,9.96,98.62,86,79,20,2.39,TH,1537668000
Outlook,51.48,-107.04,33.47,91,92,13.35,CA,1537669542
Camacha,33.08,-16.33,71.6,77,40,9.17,PT,1537668000
Santa Maria,-29.69,-53.81,86,45,0,10.29,BR,1537664400
Mahibadhoo,3.78,72.97,81.62,100,88,8.21,MV,1537669546
Ribeira Grande,38.52,-28.7,75.36,95,76,15.37,PT,1537669548
Denison,33.76,-96.54,69.08,98,90,12.75,US,1537667700
Biltine,14.53,20.93,81.71,29,44,13.69,TD,1537669550
Hilo,19.71,-155.08,82.04,67,40,6.93,US,1537667580
Yellowknife,62.45,-114.38,44.6,56,20,13.87,CA,1537668000
Albany,42.65,-73.75,55.4,74,75,1.28,US,1537667640
Castro,-42.48,-73.76,45.57,100,88,7.2,CL,1537669555
Luderitz,-26.65,15.16,52.64,86,0,17.05,NA,1537669557
Nikolskoye,59.7,30.79,50,81,0,6.71,RU,1537666200
Upernavik,72.79,-56.15,28.52,100,12,7.2,GL,1537669559
Nuuk,64.17,-51.74,37.4,100,75,8.05,GL,1537667400
Cidreira,-30.17,-50.22,69.92,84,24,10.67,BR,1537669562
Yar-Sale,66.83,70.83,46.97,100,88,15.03,RU,1537669563
Barrow,-38.31,-60.23,55.88,40,0,9.66,AR,1537669564
Cotonou,6.37,2.43,71.76,100,92,2.73,BJ,1537669566
Novoagansk,61.94,76.66,52.14,81,80,3.18,RU,1537669567
Cherdyn,60.4,56.48,49.89,96,0,6.64,RU,1537669568
Avarua,-21.21,-159.78,77,61,75,14.99,CK,1537668000
Bredasdorp,-34.53,20.04,41,93,0,2.24,ZA,1537668000
Cherskiy,68.75,161.3,36.08,90,92,2.39,RU,1537669572
Vila do Maio,15.13,-23.22,80.6,88,75,12.75,CV,1537668000
Geraldton,49.72,-86.95,35.6,93,90,4.7,CA,1537668000
Mittersill,47.28,12.48,53.6,81,75,6.93,AT,1537667400
Port Lincoln,-34.72,135.86,59.66,90,24,14.25,AU,1537669577
Beringovskiy,63.05,179.32,45.8,97,88,14.92,RU,1537669579
Sur,22.57,59.53,83.01,89,0,0.72,OM,1537669580
New Norfolk,-42.78,147.06,46.4,75,75,19.46,AU,1537668240
Swan Hill,-35.34,143.56,63.17,72,20,10.22,AU,1537669583
Santa Isabel,4.71,-75.1,77,65,75,3.36,CO,1537668000
Chumikan,54.72,135.31,52.91,66,36,3.4,RU,1537669586
Moree,-29.46,149.84,75.27,48,0,9.78,AU,1537669587
Clyde River,70.47,-68.59,23,100,90,12.75,CA,1537668000
Harper,30.3,-99.24,66.02,80,90,8.05,US,1537667700
Saint-Prosper,46.21,-70.48,40.44,77,0,4.97,CA,1537669591
Bethel,60.79,-161.76,50,96,90,23.04,US,1537667580
Provideniya,64.42,-173.23,46.56,92,0,15.59,RU,1537669594
Tautira,-17.73,-149.15,82.4,61,20,10.29,PF,1537668000
Boa Vista,2.82,-60.67,82.4,69,0,3.36,BR,1537668000
Mandalgovi,45.76,106.27,46.88,59,24,4.74,MN,1537669598
Innisfail,52.02,-113.95,32,92,90,8.05,CA,1537668000
Karratha,-20.74,116.85,93.99,8,0,4.63,AU,1537669601
Kopidlno,50.33,15.27,55.4,71,75,4.7,CZ,1537668000
Ilulissat,69.22,-51.1,30.2,36,0,17.22,GL,1537667400
Bumba,2.18,22.47,73.16,97,0,2.51,CD,1537669605
Sabha,27.03,14.43,73.11,45,0,10.22,LY,1537669606
Husavik,50.56,-96.99,40.26,97,88,11.12,CA,1537669608
Seoul,37.57,126.98,73.76,60,75,9.17,KR,1537668000
Kapaa,22.08,-159.32,87.08,79,40,10.29,US,1537667760
Carnarvon,-30.97,22.13,37.43,63,12,6.2,ZA,1537669611
Shiyan,32.65,110.78,70.14,58,92,2.39,CN,1537669613
Coihaique,-45.58,-72.07,42.8,93,20,3.36,CL,1537664400
Lata,30.78,78.62,53.31,100,100,1.83,IN,1537669615
Guaruja,-23.99,-46.26,66.2,82,0,3.36,BR,1537668000
Tarauaca,-8.16,-70.77,76.62,94,12,2.17,BR,1537669618
Kurumkan,54.33,110.32,42.83,67,0,2.17,RU,1537669619
Kiama,-34.67,150.86,62.6,63,75,9.17,AU,1537668000
Kaitangata,-46.28,169.85,46.25,100,80,15.7,NZ,1537669622
Cody,44.53,-109.06,62.96,5,1,8.05,US,1537667760
Baker City,44.77,-117.83,59,59,20,9.17,US,1537667760
Atar,20.52,-13.05,71.67,42,0,4.18,MR,1537669626
Karatau,43.18,70.46,56.19,60,0,2.62,KZ,1537669627
Tasiilaq,65.61,-37.64,33.8,74,0,5.82,GL,1537667400
Vila,45.18,8.4,68,88,40,3.36,IT,1537667400
Meulaboh,4.14,96.13,81.17,100,0,7.65,ID,1537669631
Toropets,56.5,31.64,49.44,92,20,10.11,RU,1537669633
Tiksi,71.64,128.87,34.82,100,64,12.46,RU,1537669634
Poum,41.28,20.71,52.59,89,0,2.39,MK,1537669635
Nyakahanga,-1.6,31.14,59.52,87,12,2.06,TZ,1537669636
Avera,33.19,-82.53,80.96,80,1,3.36,US,1537667700
Dhidhdhoo,6.88,73.1,79.28,100,80,6.2,MV,1537669639
Dunedin,-45.87,170.5,54.44,88,92,5.64,NZ,1537669400
Svolvaer,68.23,14.57,47.6,100,92,21.85,NO,1537669642
Hermanus,-34.42,19.24,33.29,96,0,2.73,ZA,1537669643
Lavrentiya,65.58,-170.99,46.79,87,0,20.07,RU,1537669644
Ahuimanu,21.44,-157.84,84.02,72,90,8.05,US,1537667820
West Wendover,40.74,-114.07,78.08,3,1,3.36,US,1537667760
Tuatapere,-46.13,167.69,47.33,100,76,16.26,NZ,1537669648
Sangin,32.07,64.85,62.94,41,0,3.29,AF,1537669649
Paamiut,61.99,-49.67,41.52,92,92,42.43,GL,1537669651
Saint George,39.45,22.34,60.8,72,0,1.83,GR,1537667400
Udachnyy,66.42,112.4,48.95,66,0,3.18,RU,1537669568
Galveston,40.58,-86.19,53.6,81,1,3.36,US,1537668900
Bonthe,7.53,-12.5,75.68,99,92,3.4,SL,1537669656
The Valley,18.22,-63.06,84.2,70,40,6.93,AI,1537668000
Benghazi,32.12,20.07,79.14,100,0,8.21,LY,1537669658
Lakefield,44.42,-78.27,50,100,1,2.24,CA,1537668000
Tuktoyaktuk,69.44,-133.03,26.6,100,90,16.11,CA,1537668000
South Lake Tahoe,38.93,-119.98,75.92,6,1,4.7,US,1537667700
Jamestown,-33.21,138.6,69.47,34,36,6.2,AU,1537669517
Codrington,-28.95,153.24,74.64,61,0,3.18,AU,1537669665
Sioux Lookout,50.1,-91.92,35.6,81,90,4.7,CA,1537668900
Longyearbyen,78.22,15.63,35.6,64,75,26.4,NO,1537667400
Kavieng,-2.57,150.8,86.66,99,8,5.19,PG,1537669668
Bathsheba,13.22,-59.52,80.6,78,40,11.41,BB,1537668000
Vagur,61.47,-6.81,48.14,100,56,20.62,FO,1537669671
Thompson,55.74,-97.86,24.8,73,5,3.4,CA,1537668000
Nakanojo,36.61,138.81,64.56,81,92,2.51,JP,1537669674
Foumban,5.73,10.9,60.96,99,92,2.51,CM,1537669675
Chegdomyn,51.13,133.04,48.99,87,92,3.74,RU,1537669676
Nohar,29.18,74.77,75.59,99,92,9.78,IN,1537669678
Quatre Cocos,-20.21,57.76,73.4,78,75,10.29,MU,1537668000
Vestmanna,62.16,-7.17,41,80,68,17.22,FO,1537667400
Beira,43.2,-8.36,64.4,93,0,3.36,ES,1537668000
Cockburn Town,21.46,-71.14,83.24,99,0,13.02,TC,1537669460
Emba,34.81,32.42,73.4,72,0,8.05,CY,1537668000
Rawson,-43.3,-65.11,49.13,80,0,8.43,AR,1537669685
Mezhdurechensk,53.69,88.07,51.47,99,12,3.06,RU,1537669687
Pilar,-34.46,-58.91,75.2,60,0,10.29,AR,1537664400
Vostok,46.45,135.83,56.64,82,0,2.84,RU,1537669689
Kiruna,67.86,20.23,41,80,88,17.22,SE,1537667400
Chara,39.42,22.43,60.8,72,0,1.83,GR,1537667400
Dakar,14.69,-17.45,81.35,100,8,11.01,SN,1537669693
Kodiak,39.95,-94.76,55.04,86,1,5.19,US,1537667580
Butaritari,3.07,172.79,85.17,100,8,6.64,KI,1537669696
Galdar,28.15,-15.65,73.4,78,20,24.16,ES,1537668000
Chuy,-33.69,-53.46,65.96,97,92,8.77,UY,1537669699
Inverell,-29.78,151.11,66.14,49,0,6.31,AU,1537669700
Athabasca,54.72,-113.29,34.14,67,92,11.12,CA,1537669701
Auki,12.18,6.51,70.19,96,8,6.76,NG,1537669702
Rincon,32.3,-81.24,78.8,79,1,4.29,US,1537667760
Konya,37.87,32.48,60.8,36,0,1.12,TR,1537667400
Louga,15.62,-16.22,79.64,92,24,8.66,SN,1537669706
Bambous Virieux,-20.34,57.76,73.4,78,75,10.29,MU,1537668000
Khatanga,71.98,102.47,46.07,95,92,3.51,RU,1537669709
Vila Velha,-3.71,-38.6,78.8,83,40,9.17,BR,1537668000
Hofn,64.25,-15.21,39.23,100,56,3.29,IS,1537669712
Victoria,5.28,115.24,86,79,75,3.36,BN,1537668000
Grindavik,63.84,-22.43,35.6,69,0,3.36,IS,1537666200
Nchelenge,-9.35,28.74,70.82,39,8,7.43,ZM,1537669716
Santa Vitoria do Palmar,-33.52,-53.37,65.96,97,92,8.77,BR,1537669717
Tucuman,-17.17,-70.89,50.57,82,0,1.05,PE,1537669718
Vao,59.1,26.19,50.07,84,0,11.01,EE,1537669720
Komsomolskiy,67.55,63.78,51.2,95,92,15.37,RU,1537669721
Chudovo,59.12,31.67,53.31,71,76,7.99,RU,1537669722
San Patricio,-26.98,-56.83,76.4,76,8,4.74,PY,1537669724
Skovorodino,53.99,123.94,53.67,43,0,6.31,RU,1537669725
Saint-Francois,46.42,3.91,68,56,0,3.36,FR,1537668000
Krasnoye,44.87,39.46,62.6,88,0,2.24,RU,1537666200
Ixtapa,20.71,-105.21,78.8,100,90,6.93,MX,1537667100
Tahoua,14.89,5.26,71.45,86,44,2.84,NE,1537669730
Hengyang,26.89,112.6,74.19,99,92,5.75,CN,1537669732
Samarai,-10.62,150.67,78.2,99,88,18.39,PG,1537669733
Tiarei,-17.53,-149.33,82.4,61,20,10.29,PF,1537668000
Oranjestad,12.52,-70.03,84.2,74,40,19.46,AW,1537668000
Boyolangu,-8.09,111.9,83.19,77,0,4.74,ID,1537669737
Karasburg,-28.01,18.75,48.5,36,32,5.64,NA,1537669738
Alindao,5.04,21.21,68.97,93,0,2.73,CF,1537669739
Harnosand,62.63,17.94,44.6,93,32,13.13,SE,1537667400
Saskylakh,71.97,114.09,37.25,95,68,5.53,RU,1537669742
Severo-Kurilsk,50.68,156.12,51.11,94,44,5.08,RU,1537669743
Goure,13.98,10.27,75.99,50,76,2.73,NE,1537669745
Xuddur,4.12,43.89,69.24,82,0,10.78,SO,1537669746
Georgetown,6.8,-58.16,77,100,0,4.7,GY,1537668000
Slave Lake,55.28,-114.77,33.8,72,90,8.05,CA,1537668000
Leh,34.16,77.58,28.11,92,92,1.39,IN,1537669750
Pesaro,43.91,12.91,66.2,82,8,4.7,IT,1537667700
Linkoping,58.41,15.62,51.8,81,92,12.75,SE,1537667400
Coquimbo,-29.95,-71.34,53.6,93,90,3.36,CL,1537664400
Det Udom,14.9,105.08,82.4,78,40,5.82,TH,1537668000
Loanda,-22.93,-53.14,74.64,74,0,8.21,BR,1537669756
Mogadishu,2.04,45.34,77.52,100,20,13.8,SO,1537669758
Aleppo,36.2,37.17,63.71,92,0,6.76,SY,1537669759
Eureka,40.8,-124.16,62.06,67,1,8.05,US,1537667700
Kaeo,-35.1,173.78,63.57,59,0,13.35,NZ,1537669762
Jega,12.22,4.38,73.61,94,8,4.97,NG,1537669763
Werda,50.44,12.3,51.8,81,90,3.36,DE,1537668000
Arlit,18.74,7.39,83.46,26,80,1.95,NE,1537669766
Salalah,17.01,54.1,73.4,73,0,2.24,OM,1537663800
Santa Cruz,36.97,-122.03,73.4,96,90,4.7,US,1537668180
George Town,5.42,100.33,84.2,74,75,4.7,MY,1537668000
Pangnirtung,66.15,-65.72,27.39,88,56,6.2,CA,1537669772
Marsaxlokk,35.84,14.54,75.2,83,20,3.36,MT,1537667100
Ariquemes,-9.91,-63.03,77.39,91,36,1.95,BR,1537669774
Pasighat,28.06,95.33,73.52,86,92,0.38,IN,1537669776
Rio Bueno,18.47,-77.46,82.4,74,20,3.36,JM,1537668000
Ostrovnoy,68.05,39.51,48.59,84,20,17.83,RU,1537669778
Kruisfontein,-34,24.73,51.92,100,0,5.41,ZA,1537669780
Puerto Ayora,-0.74,-90.35,69.56,100,0,11.01,EC,1537669781
Swan River,52.11,-101.27,31.67,68,76,6.42,CA,1537669782
Belyy Yar,53.6,91.39,48.2,100,68,4.07,RU,1537666200
Talaya,55.79,84.89,53.04,71,68,11.68,RU,1537669785
Kenai,60.55,-151.26,55.04,71,20,23.04,US,1537667760
Nandi Hills,0.11,35.19,57.2,93,75,8.05,KE,1537666200
Port-Cartier,50.03,-66.88,37.4,59,20,5.82,CA,1537668000
Saint-Leu,-21.15,55.28,69.8,56,0,6.93,RE,1537668000
Mar del Plata,-46.43,-67.52,41.52,100,88,7.54,AR,1537669791
Lebu,8.96,38.73,60.8,55,75,6.93,ET,1537664400
Mokhsogollokh,61.4,128.95,43.59,100,92,7.54,RU,1537669793
Grand Gaube,-20.01,57.66,73.4,78,75,10.29,MU,1537668000
Lonavale,18.75,73.42,76.17,93,76,5.3,IN,1537669796
Belle Fourche,44.67,-103.85,62.6,54,1,5.82,US,1537667700
Miles City,46.41,-105.84,68,45,1,14.99,US,1537667580
Broome,52.47,1.45,50,93,92,1.12,GB,1537667760
Lompoc,34.64,-120.46,64.4,86,90,5.82,US,1537667760
Dingle,11,122.67,80.04,100,68,0.38,PH,1537669803
Uong Bi,21.03,106.78,86.12,80,8,1.61,VN,1537669804
Seminole,32.72,-102.64,64.4,59,1,4.7,US,1537667700
Sitka,37.17,-99.65,57.68,64,0,6.64,US,1537669868
Imperia,43.88,8.02,69.2,100,8,9.22,IT,1537669809
Te Anau,-45.41,167.72,47.51,80,88,7.43,NZ,1537669871
Soyo,-6.13,12.37,72.62,91,92,3.74,AO,1537669812
Khash,28.22,61.21,52.86,36,0,3.18,IR,1537669813
Ponta do Sol,-20.63,-46,62.54,83,0,7.54,BR,1537669814
Odessa,31.85,-102.37,71.6,60,75,3.36,US,1537667580
Itoman,26.12,127.67,87.62,70,40,9.17,JP,1537668000
Chabahar,25.29,60.65,81.17,92,0,5.19,IR,1537669818
Muroto,33.37,134.14,80.6,57,75,3.36,JP,1537664400
Elizabeth City,36.3,-76.22,77.72,87,75,3.36,US,1537668300
Sao Joao da Barra,-21.64,-41.05,72.35,100,0,5.86,BR,1537669822
Alpinopolis,-20.86,-46.39,65.51,83,0,6.2,BR,1537669823
Himatnagar,23.6,72.96,78.8,94,90,4.7,IN,1537668000
Tsumeb,-19.25,17.72,60.42,35,0,7.76,NA,1537669826
Constitucion,23.99,-104.67,64.4,82,90,3.36,MX,1537666800
Guangyuan,32.43,105.86,69.69,83,64,2.73,CN,1537669828
Verkhnyaya Inta,65.99,60.32,53.54,95,92,8.21,RU,1537669829
Lubango,-14.92,13.49,53.9,84,0,1.16,AO,1537669831
Amuntai,-2.42,115.25,89.81,55,0,2.73,ID,1537669832
Nirmali,26.31,86.57,82.61,87,80,3.74,IN,1537669833
Burnie,-41.05,145.91,52.59,100,48,16.93,AU,1537669834
Kabanjahe,3.1,98.49,82.4,74,40,4.7,ID,1537668000
Flinders,-34.58,150.85,62.6,63,75,9.17,AU,1537668000
Pundaguitan,6.37,126.17,84.41,96,44,9.78,PH,1537669838
Kawalu,-7.38,108.21,76.26,64,0,2.73,ID,1537669840
Acapulco,16.86,-99.88,84.2,74,75,5.82,MX,1537667280
Puerto Baquerizo Moreno,-0.9,-89.6,69.2,98,0,8.99,EC,1537669843
Port Augusta,-32.49,137.76,62.6,67,36,11.41,AU,1537668000
Amga,60.89,131.98,43.55,93,92,6.42,RU,1537669845
Tamworth,-31.09,150.93,73.4,15,0,4.7,AU,1537668000
Khorramshahr,30.43,48.18,82.4,37,0,2.95,IR,1537668000
Morehead,38.18,-83.43,64.04,93,75,3.85,US,1537667580
Male,50.74,33.7,49.04,99,92,13.24,UA,1537669850
Karpathos,35.51,27.21,73.4,73,0,20.8,GR,1537667400
Kieta,-6.22,155.63,79.91,100,76,4.41,PG,1537669853
Saint-Philippe,45.36,-73.48,50,66,1,6.93,CA,1537668000
Leningradskiy,69.38,178.42,41.03,100,92,1.83,RU,1537669856
Cuddapah,14.47,78.82,76.31,79,92,3.4,IN,1537669857
Hamilton,32.3,-64.78,78.8,74,40,14.99,BM,1537667700
Kungurtug,50.6,97.53,48.32,40,8,3.51,RU,1537669859
Baherden,38.44,57.43,58.71,73,56,1.5,TM,1537669861
Lawton,34.61,-98.39,71.06,86,90,5.82,US,1537667760
Corinto,-18.36,-44.46,75.41,61,48,10.22,BR,1537669864
Nauta,-4.51,-73.58,75.68,92,24,3.74,PE,1537669865
Alofi,-19.06,-169.92,80.6,74,0,11.41,NU,1537668000
Virginia Beach,36.85,-75.98,77,87,90,9.17,US,1537667940
West Bay,50.71,-2.76,51.8,100,75,4.7,GB,1537667400
Biograd na Moru,43.94,15.45,60.8,82,20,6.93,HR,1537668000
Axim,4.87,-2.24,78.24,100,92,12.57,GH,1537669871
Dicabisagan,17.08,122.42,82.43,96,12,6.2,PH,1537669873
Balakovo,52.02,47.82,54.53,92,12,7.65,RU,1537669874
Kindia,10.05,-12.86,73.47,97,92,2.95,GN,1537669875
Bure,10.52,10.33,69.02,94,20,6.2,NG,1537669877
Sansare,14.75,-90.12,66.2,88,40,9.17,GT,1537668000
Kati,12.75,-8.07,73.4,94,20,2.24,ML,1537668000
Sorong,-0.86,131.25,83.33,99,24,12.68,ID,1537669881
Aberystwyth,52.41,-4.08,48.05,100,92,10.22,GB,1537669711
Mount Gambier,-37.83,140.78,54.35,72,36,6.2,AU,1537669883
Torrington,42.06,-104.18,75.02,4,1,4.7,US,1537667580
Isangel,-19.55,169.27,71.49,100,44,17.72,VU,1537669886
Navrongo,10.89,-1.09,71.76,97,12,3.18,GH,1537669887
Saint-Pierre,48.95,4.24,68,88,90,21.92,FR,1537668000
Pedasi,7.53,-80.03,81.89,100,56,7.43,PA,1537669890
Lamu,0.57,122.3,86.16,65,0,3.62,ID,1537669881
Casteldaccia,38.05,13.53,71.6,83,0,3.36,IT,1537667400
Vestmannaeyjar,63.44,-20.27,37.29,100,0,7.99,IS,1537669894
Masuguru,-11.38,38.46,64.61,95,0,2.84,MZ,1537669895
Hokitika,-42.72,170.96,51.56,100,92,8.77,NZ,1537669896
Araouane,18.9,-3.53,79.32,40,20,7.43,ML,1537669898
Yeppoon,-23.13,150.74,78.8,39,40,12.75,AU,1537668000
Norman Wells,65.28,-126.83,51.8,29,40,5.82,CA,1537668000
Half Moon Bay,37.46,-122.43,78.08,93,90,6.93,US,1537667760
Salinas,36.67,-121.66,62.6,86,40,9.17,US,1537668180
Mount Isa,-20.73,139.49,86,22,0,13.87,AU,1537668000
Scalea,39.82,15.79,74.82,99,0,1.39,IT,1537669906
Zabid,14.2,44.5,45.12,38,0,4.18,YE,1537669907
Maxixe,-23.86,35.35,72.12,97,92,8.1,MZ,1537669908
Anloga,5.79,0.9,74.91,97,76,5.64,GH,1537669909
Kavaratti,10.57,72.64,80.94,100,64,3.96,IN,1537669911
Sao Filipe,14.9,-24.5,78.83,94,12,14.7,CV,1537669912
Altamira,-3.2,-52.21,81.71,67,20,5.41,BR,1537669913
Mtwango,-9.02,34.8,55.47,76,0,11.68,TZ,1537669915
Mandera,3.94,41.86,77.07,61,0,12.46,ET,1537669916
Fort-Shevchenko,44.51,50.26,61.32,97,0,11.23,KZ,1537669885
Redlands,34.06,-117.19,102.02,16,5,9.17,US,1537667760
Inuvik,68.36,-133.71,41,80,90,4.7,CA,1537668000
College,64.86,-147.8,48.02,96,90,3.36,US,1537668360
Filingue,14.35,3.32,76.26,85,20,3.62,NE,1537669923
Gamba,28.28,88.52,36.35,67,20,3.4,CN,1537669924
Amroha,28.91,78.47,75.32,94,80,18.16,IN,1537669925
Bathurst,-33.42,149.58,61.82,57,0,5.64,AU,1537669926
Barahona,18.21,-71.1,81.66,100,32,16.6,DO,1537669928
Vanimo,-2.67,141.3,81.71,100,8,5.75,PG,1537669929
Tocopilla,-22.09,-70.2,55.88,100,12,3.62,CL,1537669930
High Prairie,55.43,-116.48,34.55,71,92,6.2,CA,1537669932
Kalmunai,7.42,81.82,79.55,90,48,4.41,LK,1537669933
Bamako,12.65,-8,73.4,94,20,2.24,ML,1537668000
Gorodishche,53.27,45.7,54.17,87,0,5.75,RU,1537669936
Yarmouth,50.71,-1.5,50,100,90,8.05,GB,1537667400
La Asuncion,-1.64,-78.74,35.67,88,0,0.16,EC,1537669938
Abu Dhabi,24.47,54.37,87.8,79,0,4.7,AE,1537668000
Cajati,-24.73,-48.11,57.77,91,0,2.39,BR,1537669941
Praia da Vitoria,38.73,-27.07,73.4,83,20,11.79,PT,1537668000
Loukhi,66.08,33.04,51.51,75,64,10.89,RU,1537669943
Kokopo,-4.34,152.27,82.34,100,44,3.96,PG,1537669945
Kingseat,56.1,-3.41,39.2,93,0,4.7,GB,1537667400
Kultuk,51.73,103.71,49.67,78,0,2.17,RU,1537669947
Berbesti,44.98,23.88,52.86,89,8,2.84,RO,1537669949
Diu,20.71,70.98,80.67,78,48,7.43,IN,1537669868
Yerofey Pavlovich,53.97,121.97,50.57,43,0,6.76,RU,1537669951
Iqaluit,63.75,-68.52,33.8,80,75,14.99,CA,1537668000
Ilinskiy,55.62,38.12,59,67,0,6.71,RU,1537666200
Ahipara,-35.17,173.16,59.61,80,0,14.25,NZ,1537669955
Verkhniy Kurkuzhin,43.69,43.28,57.2,81,0,2.06,RU,1537668000
Pisco,-13.71,-76.2,60.8,87,0,12.75,PE,1537668000
Zharkent,44.17,80,49.94,77,44,2.51,KZ,1537669959
Shar,7.3,8.73,72.08,100,92,4.41,NG,1537669960
Colombo,6.93,79.85,77,88,20,2.24,LK,1537665000
Broken Hill,-31.97,141.45,71.67,46,24,11.01,AU,1537669963
Makamba,-4.13,29.8,63.89,52,0,5.75,BI,1537669964
Los Llanos de Aridane,28.66,-17.92,73.4,69,0,12.68,ES,1537668000
Beyneu,45.32,55.19,46.47,81,0,2.84,KZ,1537669967
Bima,-8.45,118.73,87.24,62,32,2.73,ID,1537669968
Svetlaya,46.54,138.33,56.24,100,92,11.45,RU,1537669969
Mochudi,-24.38,26.15,66.2,34,0,6.93,BW,1537668000
Zonguldak,41.25,31.83,59.03,97,0,1.95,TR,1537669870
Grande Prairie,55.17,-118.79,37.4,69,90,8.05,CA,1537668000
Lorengau,-2.02,147.27,84.32,99,48,5.19,PG,1537669975
Anadyr,64.73,177.51,48.2,61,75,11.18,RU,1537668000
Kathu,-27.7,23.05,56.51,91,12,8.55,ZA,1537669977
Kirakira,-10.46,161.92,81.17,100,20,13.91,SB,1537669978
Atambua,-9.11,124.89,87.69,66,0,3.62,ID,1537669980
Iguape,-24.7,-47.56,65.46,100,36,9.22,BR,1537669981
Tabou,4.42,-7.36,78.24,100,92,11.68,CI,1537669982
Sorland,67.67,12.69,48.95,100,92,39.64,NO,1537669984
Camabatela,-8.19,15.37,58.31,91,0,2.62,AO,1537669985
Dobson,36.4,-80.72,78.08,88,75,2.28,US,1537668600
Tilichiki,60.47,166.1,50.57,89,44,4.97,RU,1537669987
Pochutla,15.74,-96.47,80.6,74,75,6.53,MX,1537667940
Port Blair,11.67,92.75,82.61,100,8,8.99,IN,1537669990
Izhma,65.01,53.91,58.58,95,92,6.76,RU,1537669991
Gondanglegi,-7.75,112.01,83.19,77,0,4.74,ID,1537669993
Yamada,36.58,137.08,77,65,40,3.36,JP,1537664400
Maracacume,-2.04,-45.96,77.03,83,8,8.99,BR,1537669996
Henties Bay,-22.12,14.28,53.63,100,12,7.2,NA,1537669997
Kresttsy,58.25,32.52,52.46,73,44,10.78,RU,1537669998
Gunjur,13.18,-16.76,78.8,88,40,5.82,GM,1537668000
Gorgan,36.84,54.43,66.2,77,0,0.16,IR,1537668000
Bagotville,-28.98,153.42,70.59,92,0,5.75,AU,1537670002
Hay River,60.82,-115.79,46.4,28,20,10.29,CA,1537668000
Chiredzi,-21.05,31.67,63.8,81,0,9.22,ZW,1537670004
Veracruz,7.66,-72.25,80.6,78,40,2.24,VE,1537668000
Borborema,-21.62,-49.07,70.77,59,0,5.19,BR,1537670007
Balkanabat,39.51,54.36,56.24,72,44,3.29,TM,1537670008
Tshikapa,-6.42,20.79,71.63,85,24,1.61,CD,1537670009
A Coruna,43.37,-8.4,64.4,93,0,3.36,ES,1537668000
Adrar,27.87,-0.29,84.2,32,40,17.22,DZ,1537668000
Tuy Hoa,13.08,109.3,85.13,86,0,0.49,VN,1537670013
Omboue,-1.57,9.26,77.07,100,80,10.78,GA,1537670014
Belmonte,40.36,-7.35,56.78,71,12,2.62,PT,1537670016
Peniche,39.36,-9.38,71.6,60,0,8.05,PT,1537668000
Golfito,8.64,-83.17,79.19,100,92,2.62,CR,1537670018
Hami,42.84,93.51,64.11,41,76,4.74,CN,1537670020
Haapiti,-17.57,-149.87,82.4,61,20,10.29,PF,1537668000
Margate,-43.03,147.26,46.4,75,75,19.46,AU,1537668240
Agirish,61.92,63.02,46.92,88,68,5.41,RU,1537669957
Jieshi,22.82,115.83,80.27,100,80,5.97,CN,1537670025
George,6.63,3.35,73.4,100,40,2.24,NG,1537668000
Vaitape,-16.52,-151.75,76.26,100,92,21.18,PF,1537670028
Narsaq,60.91,-46.05,48.2,29,92,24.16,GL,1537667400
Urusha,54.05,122.9,53.27,44,0,7.09,RU,1537670030
Lasa,34.92,32.53,73.4,72,0,8.05,CY,1537668000
Birao,10.3,22.78,71.9,84,8,3.74,CF,1537670033
Villa Carlos Paz,-31.42,-64.5,78.8,54,0,17.22,AR,1537669500
Wlodawa,51.55,23.55,44.6,93,24,6.71,PL,1537668000
Portland,45.52,-122.67,64.94,52,75,13.87,US,1537667580
Pahrump,36.21,-115.98,93.92,16,1,12.75,US,1537667700
Sturgis,44.41,-103.51,68,54,1,5.82,US,1537667700
Stepnyak,52.83,70.79,49.71,100,88,10.22,KZ,1537670041
Saldanha,41.42,-6.55,51.56,79,8,1.95,PT,1537670042
Souillac,45.6,-0.6,66.2,93,90,5.82,FR,1537668000
Gushikawa,26.35,127.87,87.62,69,1,5.19,JP,1537668000
Teguise,29.06,-13.56,73.4,83,0,20.8,ES,1537668000
Chalus,36.66,51.42,71.6,83,75,1.61,IR,1537668000
Suez,29.97,32.54,65.42,94,0,2.95,EG,1537670049
Manokwari,-0.87,134.08,83.42,100,32,4.85,ID,1537670050
Rudnyy,52.96,63.12,42.8,100,40,8.95,KZ,1537668000
Havoysund,71,24.66,50,71,8,14.99,NO,1537667400
Katsuura,33.93,134.5,73.4,83,75,4.7,JP,1537668000
Hovd,63.83,10.7,48.2,81,75,26.4,NO,1537667400
Haines Junction,60.75,-137.51,44.45,62,76,5.19,CA,1537670056
Cap Malheureux,-19.98,57.61,73.4,78,75,10.29,MU,1537668000
Matara,-13.74,-72.9,38.87,97,12,1.95,PE,1537670059
Berlevag,70.86,29.09,46.61,96,0,17.83,NO,1537670060
Mitsamiouli,-11.38,43.28,74.96,100,0,7.2,KM,1537670064
Churapcha,62,132.43,42.02,95,92,6.42,RU,1537670054
Kloulklubed,7.04,134.26,84.2,74,90,19.46,PW,1537667400
Turinsk,58.04,63.7,41.66,91,0,3.06,RU,1537670068
Na Wa,17.49,104.1,82.4,83,40,6.93,TH,1537668000
Guerrero Negro,27.97,-114.04,71,87,20,9.66,MX,1537670071
Kiunga,-6.12,141.3,74.87,97,92,2.51,PG,1537670072
Mega,4.06,38.32,56.87,96,64,6.42,ET,1537670075
Caravelas,-17.73,-39.27,77.07,100,76,9.66,BR,1537670076
Fujin,47.24,132.03,62.09,85,0,7.99,CN,1537670078
Port Hedland,-20.31,118.58,86,30,0,8.05,AU,1537668000
Biak,-0.91,122.88,82.52,81,36,6.64,ID,1537670080
Nanortalik,60.14,-45.24,38.82,98,92,28.12,GL,1537670082
Privolnaya,46.14,38.7,56.64,77,0,3.4,RU,1537670083
Kensington,46.44,-63.64,48.2,66,5,5.82,CA,1537668000
Tessalit,20.2,1.01,73.11,58,12,3.18,ML,1537670086
Dongying,37.43,118.67,71.09,58,0,11.68,CN,1537670087
Puerto Colombia,10.99,-74.96,80.6,94,75,9.17,CO,1537668000
Xichang,27.88,102.25,56.91,99,92,1.72,CN,1537670090
Miraflores,5.2,-73.14,45.12,97,0,0.72,CO,1537670092
Vardo,39.62,-77.74,62.06,69,1,5.82,US,1537667700
Ouargaye,11.5,0.06,72.62,97,24,3.51,BF,1537670096
Yuzhne,48.22,33.85,59,67,0,17.9,UA,1537668000
Vila Franca do Campo,37.72,-25.43,71.6,88,40,4.7,PT,1537668000
Mayor Pablo Lagerenza,-19.93,-60.77,83.51,57,0,12.46,PY,1537670100
Mubi,10.27,13.26,67.04,94,64,2.95,NG,1537670101
Okhotsk,59.36,143.24,50.93,80,32,6.08,RU,1537670103
Iwanai,42.97,140.51,63.89,100,80,8.88,JP,1537670104
Bella Union,8.5,-73.35,66.23,97,80,1.72,CO,1537670106
Gawler,-34.6,138.75,64.4,48,90,12.75,AU,1537668000
Takoradi,4.89,-1.75,77.16,100,76,9.1,GH,1537670108
Tezu,27.93,96.16,72.08,80,44,1.72,IN,1537670109
Gavrilov-Yam,57.3,39.85,59.66,71,20,8.21,RU,1537670111
Faya,18.39,42.45,64.4,27,0,6.2,SA,1537668000
Turka,49.16,23.03,42.11,90,36,3.4,UA,1537670113
Waddan,29.16,16.14,66.32,71,0,4.07,LY,1537670115
Fond du Lac,43.77,-88.45,53.6,77,1,9.17,US,1537667700
Chokurdakh,70.62,147.9,35.72,97,92,5.75,RU,1537670117
Chicama,-7.84,-79.15,62.6,88,90,8.05,PE,1537668000
Begoro,6.38,-0.38,71.9,100,92,2.95,GH,1537670120
Nome,30.04,-94.42,76.28,91,1,4.74,US,1537667700
San Quintin,17.54,120.52,87.8,66,20,4.7,PH,1537668000
Brownfield,33.18,-102.27,64.4,59,1,4.7,US,1537667700
Namibe,-15.19,12.15,65.42,100,0,3.74,AO,1537670125
Perdoes,-21.09,-45.09,65.69,82,0,10.89,BR,1537670126
Ushumun,52.78,126.54,54.53,49,92,6.64,RU,1537670127
Thaba-Tseka,-29.52,28.61,45.26,97,92,2.28,LS,1537670128
Sandpoint,48.28,-116.55,62.6,45,75,6.93,US,1537668900
San Francisco,37.78,-122.42,78.08,83,40,16.11,US,1537667760
Beni,0.49,29.47,60.83,93,24,2.39,CD,1537670133
Touros,-5.2,-35.46,74.51,92,32,10.67,BR,1537670135
Aloleng,16.13,119.78,83.82,100,20,1.39,PH,1537670136
Mumford,5.26,-0.76,75.77,96,76,6.98,GH,1537670137
Todos Santos,23.45,-110.23,86,58,5,6.93,MX,1537667220
Fortuna,38.18,-1.13,69.8,94,0,3.36,ES,1537668000
Kapit,2.02,112.94,82.07,84,68,2.73,MY,1537670141
Malanje,-9.54,16.35,61.91,99,0,4.41,AO,1537670142
Kumano,34.34,132.59,77,51,75,5.82,JP,1537667700
Castelldefels,41.29,1.98,71.6,88,0,5.82,ES,1537668000
Hambantota,6.12,81.12,80.49,100,64,7.76,LK,1537670146
Bria,6.54,21.99,67.13,89,0,1.83,CF,1537670147
Mahebourg,-20.41,57.7,73.4,78,75,10.29,MU,1537668000
Muros,42.77,-9.06,60.8,100,90,3.36,ES,1537668000
Biloela,-24.4,150.51,78.96,36,0,10.45,AU,1537670152
Watsa,3.04,29.53,61.82,91,0,2.62,CD,1537670153
Bubaque,11.28,-15.83,78.8,88,40,2.24,GW,1537664400
Oktyabrskoye,56.73,85.44,54.39,68,92,6.64,RU,1537670156
Mao,19.55,-71.08,80.6,88,40,8.05,DO,1537668000
Kondopoga,62.21,34.27,51.8,87,76,6.71,RU,1537668000
Sao Miguel do Araguaia,-13.28,-50.16,74.96,90,20,2.73,BR,1537670159
Zalantun,48,122.72,51.96,81,68,4.63,CN,1537670161
Ketchikan,55.34,-131.65,57.92,57,1,5.82,US,1537667760
Zhigansk,66.77,123.37,41.84,87,64,3.85,RU,1537670163
Sept-Iles,50.2,-66.38,37.4,59,20,5.82,CA,1537668000
Novi Sanzhary,49.33,34.31,57.72,73,80,13.02,UA,1537670166
Japura,-0.42,102.29,86.12,69,0,2.95,ID,1537670167
Florida,21.53,-78.23,78.8,88,40,4.7,CU,1537667400
Awjilah,29.14,21.3,68.34,64,0,5.75,LY,1537670170
Visnes,59.36,5.22,50,81,92,17.22,NO,1537667400
Leninskoye,54.82,82.85,51.8,87,75,11.18,RU,1537668000
Ostroda,53.7,19.96,51.92,69,0,16.71,PL,1537670174
Lubao,14.94,120.6,89.6,74,20,8.05,PH,1537668000
Cairns,-16.92,145.77,73.4,69,75,16.11,AU,1537668000
Arica,-18.48,-70.32,62.6,67,75,5.82,CL,1537668000
Jiayuguan,39.77,98.29,57.23,36,8,3.96,CN,1537670179
Sinnamary,5.38,-52.96,82.11,94,0,11.68,GF,1537670180
Resistencia,-27.45,-58.99,87.8,62,0,13.87,AR,1537668000
Natal,-5.81,-35.21,73.4,83,20,5.82,BR,1537668000
Tukan,53.84,57.45,54.35,98,88,2.51,RU,1537670184
Mufumbwe,-13.68,24.8,67.17,39,0,13.47,ZM,1537670185
Surab,28.49,66.26,56.24,35,0,2.06,PK,1537670186
Maniitsoq,65.42,-52.9,36.12,89,64,11.79,GL,1537670187
Srandakan,-7.94,110.25,85.85,61,0,5.53,ID,1537670189
Paraiso,24.01,-104.61,64.4,82,90,3.36,MX,1537666800
Akot,21.09,77.05,76.04,97,20,4.18,IN,1537670191
Bara,10.41,10.6,69.47,98,68,7.54,NG,1537670193
Kampot,10.62,104.18,80.45,98,36,4.41,KH,1537670194
Pozo Colorado,-23.49,-58.8,86.3,55,0,12.01,PY,1537670196
Ormara,25.21,64.64,76.94,98,76,2.28,PK,1537670197
Dera Bugti,29.03,69.15,79.28,71,0,5.19,PK,1537670198
Ust-Kuyga,70,135.55,33.06,85,80,5.41,RU,1537670200
Buin,-33.73,-70.74,55.4,76,0,5.82,CL,1537668000
Surgut,61.25,73.4,42.8,100,0,6.71,RU,1537668000
Cayenne,4.94,-52.33,78.8,88,0,3.36,GF,1537668000
Trairi,-3.28,-39.27,79.19,99,92,20.51,BR,1537670151
Goundam,16.42,-3.66,78.38,67,0,2.39,ML,1537670206
Hoogeveen,52.72,6.48,50,93,92,5.82,NL,1537669500
Namie,37.52,140.86,78.8,56,20,2.24,JP,1537668000
Clarence Town,-32.59,151.78,66.2,68,75,19.46,AU,1537668000
Sabang,13.72,123.58,81.98,92,88,8.99,PH,1537670211
Sakskobing,54.8,11.63,56.78,100,92,21.85,DK,1537670213
Binzhou,37.38,117.96,70.77,50,0,10.22,CN,1537670214
Betsiamites,48.94,-68.65,46.4,69,1,5.82,CA,1537668000
Shanhetun,44.7,127.2,60.29,78,48,10.45,CN,1537670216
Ouadda,8.07,22.4,65.96,90,20,3.18,CF,1537670218
Fairbanks,64.84,-147.72,48.02,96,90,3.36,US,1537668360
Matagami,9.67,8.4,68.52,99,92,2.73,NG,1537670223
Ongandjera,-17.88,15.07,64.34,30,12,5.97,NA,1537670225
Nioro,13.79,-15.05,78.2,85,0,7.43,GM,1537670226
Nagua,19.37,-69.85,80.81,89,92,7.65,DO,1537670227
Kuju,23.72,85.51,73.4,94,75,4.41,IN,1537666200
Petoa,15.27,-88.29,78.8,94,75,6.93,HN,1537668000
